Index,City,Country,Latitude,Longitude,Temperature (°F),Humidity (%),Cloudiness (%),Wind Speed (mph)
0,Kapaa,United States,22.0947394,-159.3245926,74.44,82,74,5.01
1,Bagdarin,Russia,54.4479459,113.5909765,60.62,65,100,4.05
2,Hobart,Australia,-42.8826055,147.3257196,53.35,77,40,13.8
3,Grand River South East,Mauritius,-20.2888094,57.78141199999999,73.78,68,75,12.66
4,Grindavik,Iceland,63.8441808,-22.4383818,50.32,100,100,17.27
5,Vaitupu,Wallis and Futuna,-13.2308863,-176.1917035,82.85,72,95,15.48
6,Bermeo,Spain,43.4188248,-2.7269756,82.78,61,20,14.97
7,Port Hardy,Canada,50.7207083,-127.4968729,51.75,87,100,2.3
8,Ostrovnoy,Russia,68.0603191,39.4740385,42.19,97,100,8.52
9,Rikitea,French Polynesia,-23.1223034,-134.9691543,72.41,73,100,13.51
10,Mataura,French Polynesia,-23.347523,-149.4860498,72.32,58,51,14.85
11,Tiarei,French Polynesia,-17.5391608,-149.3714069,73.42,72,30,24.9
12,Prince Rupert,Canada,54.3150367,-130.3208187,48.09,98,100,4.61
13,Nola,Central African Republic,3.5248736,16.0463837,84.85,55,62,4.45
14,Atuona,French Polynesia,-9.8028605,-139.0398069,78.17,74,46,17.18
15,Torbay,Canada,47.6580777,-52.7355238,63.43,78,75,23.02
16,Vaini,Tonga,-21.1935,-175.1751534,77.25,88,75,8.05
17,Ushuaia,Argentina,-54.8019121,-68.3029511,29.82,74,75,3.44
18,Taolanaro,Madagascar,-25.0225309,46.9853688,67.96,77,75,13.8
19,Ilulissat,Greenland,69.2198118,-51.0986032,38.46,66,88,7.27
20,Puerto Ayora,Ecuador,-0.7432918,-90.3156893,69.98,98,88,5.01
21,Piacabucu,Brazil,-10.405923,-36.431617,80.2,73,5,5.59
22,Andenes,Norway,69.31607989999999,16.1202284,50.02,87,75,11.5
23,Sao Filipe,Cape Verde,14.8951679,-24.4945636,74.44,88,54,6.04
24,Attawapiskat,Canada,52.9258846,-82.42889219999999,51.78,62,75,4.61
25,Busselton,Australia,-33.6516465,115.3473335,59.02,70,100,5.3
26,Hermanus,South Africa,-34.4092004,19.2504436,60.91,66,75,3.85
27,Pacific Grove,United States,36.6177374,-121.9166215,47.75,87,5,1.01
28,Esperance,Australia,-33.8613953,121.8912724,53.35,69,98,17.63
29,Abay,Kazakhstan,49.6324398,72.8771916,86.38,26,41,4.34
30,Punta Arenas,Chile,-53.1638329,-70.9170683,35.8,80,75,19.57
31,Bambous Virieux,Mauritius,-20.3438619,57.7636821,73.36,68,75,12.66
32,Vardo,Norway,70.3705875,31.1094377,42.87,93,100,11.5
33,Saskylakh,Russia,71.954308,114.119835,40.5,56,14,15.35
34,Hilo,United States,19.7216023,-155.084887,70.07,80,75,8.05
35,Thompson,Canada,55.7449251,-97.8508715,61.02,72,75,2.3
36,Tasiilaq,Greenland,65.6134561,-37.6335696,42.51,76,43,1.36
37,Ilinsko-Podomskoye,Russia,61.1160006,47.9670929,62.28,55,100,4.12
38,Tongren,China,27.7315599,109.18962,74.03,97,100,1.72
39,Kuche,China,41.7173737,82.9621102,80.53,23,100,18.3
40,Pop,Uzbekistan,40.8814636,71.1032591,91.69,24,48,10.09
41,Castro,Chile,-42.4801402,-73.7624137,33.91,93,0,3.44
42,Dikson,Russia,73.507735,80.53103019999999,38.35,75,100,10.36
43,Blackwater,Australia,-23.5745988,148.887168,56.82,71,19,6.31
44,Hervey Bay,Australia,-25.2881539,152.7676633,60.15,89,13,7
45,Jamestown,"Saint Helena, Ascension and Tristan da Cunha",-15.9286343,-5.7151749,69.33,66,98,21.45
46,Ponta Delgada,Portugal,37.7394207,-25.6686725,68.72,64,40,16.11
47,Okhansk,Russia,57.71667189999999,55.3972152,68.02,58,50,7.38
48,Bredasdorp,South Africa,-34.5385222,20.0568771,59.14,62,84,7.92
49,Constitucion,Chile,-35.33330000000001,-72.41669999999999,51.19,57,100,3.53
50,Qaanaaq,Greenland,77.4670434,-69.2284828,35.08,85,41,6.46
51,Marechal Floriano,Brazil,-20.4113507,-40.6760342,67.51,90,93,4.74
52,Albany,Australia,-35.0268148,117.8837114,55.96,69,90,11.95
53,Kavaratti,India,10.5593204,72.63581340000002,82.53,75,100,13.27
54,Lorengau,Papua New Guinea,-2.0298424,147.2743657,80.51,73,14,5.95
55,Namibe,Angola,-15.1978317,12.1575544,68.52,64,75,18.41
56,Bluff,New Zealand,-46.597299,168.3302209,47.28,77,100,9.51
57,Yulara,Australia,-25.237979,130.9856199,63.75,29,100,5.95
58,Umm Kaddadah,Sudan,13.60375,26.68413,98.17,12,100,6.38
59,Adrar,Algeria,28.0174403,-0.2642497,109.6,6,0,3.71
60,Padang,Indonesia,-0.9470831999999999,100.417181,74.71,92,100,1.25
61,Meulaboh,Indonesia,4.1436951,96.12811459999999,77.88,84,100,4.54
62,Valeni,Romania,46.7464101,27.7624971,81.3,35,0,4.5
63,Pierre,United States,44.36678759999999,-100.3537522,81.95,55,6,20
64,Airai,Palau,7.396611799999999,134.5690225,81.57,73,87,3.56
65,Dunedin,New Zealand,-45.8795455,170.5005957,44.78,87,100,10.07
66,Boueni,Mayotte,-12.9102083,45.0806283,82.18,72,13,12.86
67,Martinsburg,United States,39.4562099,-77.96388689999999,62.24,54,0,12.19
68,Pascagoula,United States,30.3657552,-88.5561272,80.82,81,3,7.9
69,A,Norway,67.88056139999999,12.9826433,53.82,77,18,5.91
70,Santo Anastacio,Brazil,-21.9778518,-51.6542973,58.86,62,0,9.19
71,Teknaf,Bangladesh,20.857776,92.29756189999999,79.79,84,100,5.88
72,Tabory,Russia,58.528389,64.5532379,68.11,85,55,5.35
73,Tabas,Iran,33.5961005,56.9278993,105.96,11,0,4.61
74,Sivaki,Russia,52.631082,126.747264,56.48,76,6,5.61
75,Clyde River,Canada,70.47636500000002,-68.601265,44.58,61,20,16.11
76,Whitehorse,Canada,60.7211871,-135.0568449,49.19,57,40,11.99
77,Lebu,Chile,-37.6080479,-73.6514907,49.37,88,100,10.49
78,Hithadhoo,Maldives,-0.6094628,73.0907,83.89,66,100,4.7
79,Naze,Japan,36.204824,138.252924,63.63,95,100,4.47
80,Yellowknife,Canada,62.4539717,-114.3717886,59.2,63,20,6.91
81,Hami,China,42.8185499,93.5153799,88.52,11,100,4.23
82,Luderitz,Namibia,-26.6420382,15.1639082,63.05,61,15,18.37
83,Barrow,United States,71.29055559999999,-156.7886111,34.18,80,32,7.2
84,Traralgon,Australia,-38.1940197,146.5336107,47.32,95,100,0.92
85,Tanete,Indonesia,-5.337832,120.130402,70.63,92,95,1.5
86,Colotlan,Mexico,22.1126492,-103.2692337,67.03,65,23,2.98
87,Opuwo,Namibia,-18.0580139,13.8361177,78.67,17,0,11.56
88,Zhigansk,Russia,66.75206399999999,123.394112,49.05,58,100,13.22
89,Chokurdakh,Russia,70.622169,147.916168,54.55,96,100,10.45
90,Itarema,Brazil,-2.9242369,-39.9129274,82.44,70,84,14.63
91,Rocha,Uruguay,-34.4809769,-54.3307438,50.61,55,66,10.09
92,Vila Franca Do Campo,Portugal,37.7157269,-25.4345063,68.41,72,52,12.71
93,Nizhneyansk,Russia,71.450058,136.1122279,40.37,86,100,21.41
94,Palauig,Philippines,15.4522102,119.9547522,82.11,79,11,2.1
95,Nanortalik,Greenland,60.1424955,-45.239495,43.05,95,100,9.06
96,Bandarbeyla,Somalia,9.498579999999999,50.8105261,88.09,50,99,28.3
97,Wageningen,Suriname,5.767457500000001,-56.6878653,75,92,92,3.06
98,Vestmannaeyjar,Iceland,63.437679,-20.267321,49.53,97,100,7.92
99,Talaya,Russia,61.1317561,152.3880785,47.48,75,93,2.04
100,Port Alfred,South Africa,-33.5864065,26.8851448,63.27,64,78,8.01
101,Amderma,Russia,69.751221,61.66369599999999,37.83,94,96,11.36
102,Sur,Oman,22.5652759,59.5066376,94.46,54,0,2.48
103,Upernavik,Greenland,72.7862881,-56.1375527,33.94,87,32,6.64
104,Butaritari,Kiribati,3.1166667,172.8,80.78,79,21,7.9
105,Kholm,Poland,51.1431232,23.4711986,82.42,52,1,12.75
106,Odienne,Ivory Coast,9.518875399999999,-7.557223100000001,84.43,59,98,2.75
107,Beringovskiy,Russia,63.0611249,179.3485395,45.16,87,100,13.53
108,Tabou,Ivory Coast,4.427919699999999,-7.357057599999999,80.71,73,83,6.26
109,San Cristobal,Ecuador,-0.8674715,-89.436391,67.93,86,100,10.98
110,Kavieng,Papua New Guinea,-2.5781167,150.8086082,81.39,77,43,6.82
111,Carnarvon,Australia,-24.8838363,113.6570584,67.98,71,1,11.92
112,East London,South Africa,-33.0198434,27.903905,65.39,52,0,12.66
113,Bonfim,Brazil,-20.3271154,-44.2408075,68.4,64,27,7.27
114,Hailey,United States,43.51962880000001,-114.3153245,41.83,76,0,5.75
115,Mareeba,Australia,-16.9973592,145.423065,62.4,96,3,2.8
116,Cape Town,South Africa,-33.9248685,18.4240553,61.41,56,20,10.36
117,Oranjemund,Namibia,-28.5597111,16.4346979,62.53,52,60,14.27
118,Casino,Australia,-28.8583975,153.0469677,57.54,95,89,3.06
119,Piriyapatna,India,12.3383636,76.0965379,71.67,89,100,9.55
120,Lasa,China,29.6526199,91.13775,65.26,44,46,6.6
121,Namatanai,Papua New Guinea,-3.6692081,152.4063941,79,81,31,3.53
122,Narsaq,Greenland,60.9129622,-46.050483,43.43,97,100,1.3
123,Lakatoro,Vanuatu,-16.1001798,167.4164063,77.52,81,98,5.19
124,Tilichiki,Russia,60.43333299999999,166.048611,45.84,86,100,3.74
125,Hobyo,Somalia,5.3515922,48.5249751,82.94,63,5,31.85
126,Georgetown,"Saint Helena, Ascension and Tristan da Cunha",-7.926222999999999,-14.4112011,77.56,75,62,17.4
127,Katsuura,Japan,35.1522272,140.3208833,71.73,88,100,16.96
128,Kinanah,Sudan,12.862807,30.217636,100.02,12,74,3.76
129,Niksic,Montenegro,42.7804735,18.9561661,79.61,43,0,3.09
130,Port Elizabeth,South Africa,-33.9608369,25.6022423,62.29,55,0,17.27
131,Bozhou,China,33.8446099,115.77931,90.81,30,74,7.56
132,Stokmarknes,Norway,68.56483829999999,14.9098717,55.26,67,75,9.22
133,Sitka,United States,57.05321929999999,-135.3345513,50.41,83,100,3.56
134,Chuy,Uruguay,-33.692754,-53.4552817,47.66,53,14,9.22
135,Bethel,United States,60.79425899999999,-161.7694402,46.72,100,20,3.44
136,Saint-Philippe,Réunion,-21.3595223,55.7665126,74.79,71,3,13.13
137,Black River,Jamaica,18.0335359,-77.85673799999999,81.55,70,100,11.16
138,Chifeng,China,42.2585999,118.88894,80.04,60,1,14.27
139,Broome,Australia,-17.96182,122.236998,75.15,78,100,8.05
140,Umzimvubu,South Africa,-30.7781755,28.9528645,58.28,58,19,9.8
141,Flin Flon,Canada,54.7657685,-101.8762148,58.59,88,40,3.44
142,Midland,United States,31.9973456,-102.0779146,76.28,64,0,8.05
143,Huambo,Angola,-12.7739761,15.7468535,76.86,31,0,0
144,Basoko,DR Congo,1.2408277,23.611537,81.73,62,65,5.84
145,Orbetello,Italy,42.4396474,11.2124083,81.99,52,5,11.48
146,Sioux Lookout,Canada,50.0978321,-91.922038,57.38,67,75,9.22
147,Port Lincoln,Australia,-34.7226381,135.8597449,58.98,71,100,18.59
148,Haibowan,China,39.6918399,106.8226,84.63,25,93,16.8
149,Longlac,Canada,49.78166599999999,-86.534706,54.84,50,100,7.99
150,Tuktoyaktuk,Canada,69.445358,-133.034181,36.05,89,100,11.77
151,Korla,China,41.7264299,86.1736899,87.91,14,100,8.48
152,Khatanga,Russia,71.964027,102.440613,48.79,46,22,6.8
153,Kirando,Tanzania,-7.3697011,30.6234003,80.28,45,71,7.38
154,Mys Shmidta,Russia,68.8931114,-179.4125967,37.56,90,84,8.72
155,Castrovillari,Italy,39.8152678,16.1997438,82.18,34,84,7.45
156,Puerto Asis,Colombia,0.4985097,-76.4977428,67.69,99,100,1.66
157,Zyryanka,Russia,65.767376,150.841238,58.39,38,100,12.68
158,Manjacaze,Mozambique,-24.7057037,33.8801952,79.61,41,0,5.68
159,Palabuhanratu,Indonesia,-6.9889961,106.5523635,78.06,87,33,3.62
160,Pevek,Russia,69.7029321,170.3070329,39.42,79,100,2.91
161,Bang Krathum,Thailand,16.5909145,100.2992789,86.05,65,96,9.73
162,Bela,Pakistan,26.2189787,66.3140725,95.49,48,0,21.9
163,Mayo,Canada,63.59426199999999,-135.896492,51.8,62,20,3.44
164,Mar Del Plata,Argentina,-38.0054771,-57.5426106,37.44,81,0,11.5
165,Sinnamary,French Guiana,5.3746712,-52.9545991,75.7,92,100,7.23
166,Champerico,Guatemala,14.2974022,-91.9087026,73.96,86,98,9.73
167,Meadow Lake,Canada,54.1316746,-108.4280261,58.98,94,20,5.75
168,Makushino,Russia,55.2048967,67.24896799999999,74.3,66,61,9.4
169,Alofi,Niue,-19.0553711,-169.9178709,75.27,94,72,8.05
170,Weligama,Sri Lanka,5.9773782,80.4288487,80.6,80,82,8.7
171,Labytnangi,Russia,66.6557632,66.38983189999999,65.07,70,100,6.4
172,Thinadhoo,Maldives,0.531061,72.99772519999999,83.68,69,99,7.25
173,Scharding,Austria,48.46051,13.43268,90.46,50,6,3.27
174,Illoqqortoormiut,Greenland,70.48556909999999,-21.9628756,40.51,60,15,5.23
175,Waiouru,New Zealand,-39.4772357,175.6683591,36.84,96,100,5.3
176,Mahebourg,Mauritius,-20.4059505,57.7034222,73.89,68,75,12.66
177,Allahabad,India,25.4358011,81.846311,98.24,34,10,6.8
178,Campina Verde,Brazil,-19.5340345,-49.4807685,73.49,62,6,5.37
179,Ribeira Grande,Portugal,37.8210369,-25.5148137,68.25,64,40,16.11
180,Ancud,Chile,-41.8675003,-73.8276965,39.6,90,45,6.24
181,Zhemchuzhnyy,Russia,66.921944,32.209444,50.14,64,100,7.18
182,Tiksi,Russia,71.63748199999999,128.8644716,35.92,95,100,22.59
183,Gat,Libya,24.9640371,10.1759285,97.88,10,0,4.14
184,Hasaki,Japan,35.7600822,140.8092263,70.21,90,100,15.61
185,New Norfolk,Australia,-42.781144,147.0622665,51.55,79,100,4
186,Sentyabrskiy,Russia,60.49545690000001,72.20805969999999,77.97,38,5,6.17
187,Kodiak,United States,57.79000000000001,-152.4072222,49.51,81,100,6.91
188,San Quintin,Mexico,30.56087669999999,-115.9379302,58.77,84,0,6.46
189,Port Macquarie,Australia,-31.4580174,152.8974657,53.8,87,100,9.08
190,Salalah,Oman,17.0193843,54.11075049999999,84.45,81,91,10.09
191,Buchanan,Liberia,5.887246999999999,-10.0303723,82.4,66,58,8.03
192,Zaozhuang,China,34.8107099,117.32196,88.3,40,100,12.33
193,Kinna,Sweden,57.50984,12.6941321,62.6,54,100,8.14
194,Nantucket,United States,41.2834704,-70.099451,54.16,88,100,26.78
195,Cienfuegos,Cuba,22.1599753,-80.4437781,79.74,76,75,4.38
196,Axim,Ghana,4.8665091,-2.240888,82.45,67,100,4.85
197,High Level,Canada,58.50706640000001,-117.1403406,55.51,100,100,5.75
198,Krasnopavlivka,Ukraine,49.1382876,36.3203872,77.72,46,6,6.33
199,Deh Rawud,Afghanistan,32.640755,65.5707852,94.93,7,0,23.22
200,Bosobolo,DR Congo,4.1874673,19.8752578,75.47,84,99,2.73
201,Araouane,Mali,18.904265,-3.5275161,94.8,30,79,4.16
202,Avarua,Cook Islands,-21.2129007,-159.7823059,74.68,69,75,9.22
203,Garh Maharaja,Pakistan,30.8338234,71.9060471,97.72,32,0,2.66
204,Bahir Dar,Ethiopia,11.5742086,37.3613533,73.54,53,99,1.95
205,Port Moresby,Papua New Guinea,-9.443800399999999,147.1802671,78.1,83,20,5.75
206,Husavik,Iceland,66.0449706,-17.3383443,61.11,51,100,7.99
207,Oistins,Barbados,13.0705904,-59.54695439999999,84.38,65,75,20.71
208,Mitsamiouli,Comoros,-11.3871698,43.2980711,78.06,70,37,11.3
209,San Policarpo,Philippines,12.2046953,125.4781649,82.58,74,100,5.64
210,Fairbanks,United States,64.8400511,-147.7199756,50.7,90,0,4.61
211,Ankazoabo,Madagascar,-18.3181877,47.1118527,68.32,56,81,14.25
212,Scottsbluff,United States,41.8666341,-103.6671662,70.3,53,6,1.99
213,Akdepe,Turkmenistan,42.0531638,59.38455200000001,91.49,19,3,16.08
214,Seoul,South Korea,37.566535,126.9779692,73.2,83,75,4.61
215,Tiznit,Morocco,29.693392,-9.732156999999999,79.14,55,7,12.01
216,Vao,New Caledonia,-22.6658429,167.4960078,71.87,75,100,19.82
217,Ormara,Pakistan,30.375321,69.34511599999999,87.26,32,18,11.12
218,Geraldton,Australia,-28.7761346,114.611295,59.29,88,75,9.22
219,Jumla,Nepal,29.28892179999999,82.3017728,51.12,85,94,1.97
220,Montevideo,Uruguay,-34.9011127,-56.16453139999999,48.29,54,0,11.5
221,Djambala,Republic of the Congo,-2.5398781,14.7550108,85.01,39,87,2.06
222,Isangel,Vanuatu,-19.54172,169.2803499,65.43,94,100,2.3
223,Aklavik,Canada,68.219916,-135.007788,43.07,77,79,16.44
224,Berlevag,Norway,70.8580573,29.0858433,44.4,76,100,4.61
225,Puerto Ayacucho,Venezuela,5.6614718,-67.58277439999999,74.39,91,100,3.13
226,Tigil,Russia,57.779388,158.5752259,45.34,86,100,4.25
227,Bengkulu,Indonesia,-3.792845099999999,102.2607641,76.93,88,100,2.71
228,Arraial Do Cabo,Brazil,-22.9667613,-42.0277716,67.86,88,100,2.3
229,Hofn,Iceland,64.24970259999999,-15.2020076,57.22,72,0,3.44
230,Belushya Guba,Russia,71.53903389999999,52.33813689999999,37.58,77,100,21.43
231,Henties Bay,Namibia,-22.1134964,14.2832038,60.21,78,21,12.03
232,Avera,French Polynesia,-22.4783218,-151.3512437,73.17,64,78,17.74
233,Ventspils,Latvia,57.3937216,21.5647066,55.33,94,100,12.66
234,Olafsvik,Iceland,64.89604849999999,-23.7060263,50.14,97,100,13.69
235,La Rochelle,France,46.160329,-1.151139,73.53,73,40,13.8
236,Victoria,Seychelles,-4.619143,55.4513149,82.29,74,20,14.97
237,Caravelas,Brazil,-17.7336523,-39.265271,78.71,60,7,5.99
238,Sokolo,Mali,14.7384717,-6.118242899999999,90.1,43,20,6.82
239,Lena,Norway,60.6739876,10.8134211,66.51,27,39,2.17
240,Faanui,French Polynesia,-16.4867378,-151.7429125,78.73,78,6,22.5
241,Tuatapere,New Zealand,-46.1315913,167.6896869,44.42,89,94,1.86
242,Middle Island,Saint Kitts and Nevis,17.3348813,-62.80882510000001,82.94,65,20,14.97
243,Honiara,Solomon Islands,-9.4456381,159.9728999,76.46,88,8,3.62
244,Severo-Kurilsk,Russia,50.6683424,156.115192,47.05,98,100,1.77
245,Polovinnoye,Russia,54.78940859999999,65.9674842,69.94,73,93,7.18
246,Constantine,Algeria,36.3570052,6.639028199999999,95.72,17,0,11.5
247,Inhambane,Mozambique,-23.8662153,35.3826756,78.78,50,40,13.8
248,Tsihombe,Madagascar,-25.3168473,45.48630929999999,69.84,66,97,12.64
249,Saldanha,South Africa,-33.0276981,17.9176312,60.76,69,0,13.27
250,Kristiinankaupunki,Finland,62.2739353,21.3797701,51.55,89,100,15.99
251,Coquimbo,Chile,-29.9590009,-71.3389183,53.47,82,100,2.3
252,Mountain Home,United States,43.1329504,-115.6911975,47.68,61,0,17.27
253,Pando,Uruguay,-34.7117766,-55.963705,43.25,65,0,11.5
254,Mwene-Ditu,DR Congo,-7.009025599999999,23.4537973,88.84,22,25,2.77
255,Gamba,Gabon,-2.7404898,10.0303723,78.33,67,25,10.6
256,Yeppoon,Australia,-23.1335258,150.7374455,58.96,79,97,12.8
257,Kolpny,Russia,52.2264515,37.0361304,71.98,66,54,14.97
258,Pisco,Peru,-13.7134562,-76.1841701,53.28,87,75,5.75
259,Oda,Japan,36.204824,138.252924,63.63,95,100,4.47
260,Theologos,Greece,36.3804974,28.030962,80.58,65,20,19.57
261,Lagoa,Portugal,37.1356176,-8.4514359,72.7,68,2,14.25
262,Arman,Russia,59.6733284,150.1414857,46.13,96,100,4.54
263,Barentsburg,Svalbard and Jan Mayen,78.0648475,14.2334595,39.42,87,100,1.28
264,Hay River,Canada,60.816218,-115.7853653,50.02,81,75,4.61
265,Formosa,Argentina,-26.1857768,-58.1755669,46.38,81,0,8.05
266,Hualmay,Peru,-11.0883431,-77.61065119999999,62.4,78,19,7.52
267,Quatre Cocos,Mauritius,-20.201639,57.7743197,74.41,68,24,14.97
268,Longyearbyen,Svalbard and Jan Mayen,78.22317220000001,15.626723,41.14,81,75,9.22
269,Roebourne,Australia,-20.9596491,116.6081653,73.56,41,0,11.03
270,Marica,Brazil,-22.9160994,-42.819192,66.74,84,100,7
271,Najran,Saudi Arabia,17.5656036,44.2289441,103.17,7,45,14.03
272,Nioki,DR Congo,-2.7180891,17.6866471,88.66,41,100,2.82
273,Alexandria,Egypt,31.2000924,29.9187387,84.02,48,20,9.22
274,Capitan Bado,Paraguay,-23.2585481,-55.541359,50.63,66,100,7.11
275,Mersing,Malaysia,2.430917,103.8361151,80.47,83,40,4.61
276,Port Augusta,Australia,-32.4935661,137.7743496,52.03,70,5,12.26
277,Bartica,Guyana,6.4043217,-58.625825,75.33,90,60,4.03
278,Hearst,Canada,49.6880184,-83.66695519999999,48.42,49,100,6.96
279,Talnakh,Russia,69.5,88.39999999999999,60.73,26,100,6.35
280,Hirara,Japan,24.8218333,125.3137005,82.45,86,74,13.49
281,Petropavlovka,Russia,50.6083262,105.3109495,62.38,73,6,0.58
282,Maceio,Brazil,-9.6660417,-35.7352167,81.84,69,75,6.91
283,Nikolayevsk-Na-Amure,Russia,53.1500944,140.718478,47.16,97,26,3.89
284,Santa Cruz De Tenerife,Spain,28.4636296,-16.2518467,76.68,74,40,17.27
285,San Pedro,Bolivia,-16.5032267,-68.1349437,42.87,44,20,8.05
286,Severobaykalsk,Russia,55.627858,109.3149162,48.74,90,90,1.1
287,Turayf,Saudi Arabia,31.6660775,38.6634693,104.23,18,0,4.61
288,Vagamo,Norway,61.87517010000001,9.0966266,60.96,39,100,2.39
289,Cuencame,Mexico,24.8684207,-103.6972217,68.36,59,86,9.04
290,Xuddur,Somalia,4.1228001,43.88880959999999,86.41,35,99,22.35
291,Marawi,Sudan,18.4689363,31.8164031,108.1,9,89,11.61
292,Ginir,Ethiopia,7.1386715,40.7115639,75.13,40,54,17.05
293,Tazmalt,Algeria,36.3903818,4.3954971,103.08,12,0,9.82
294,Florianopolis,Brazil,-27.5948036,-48.5569286,58.21,83,75,6.91
295,Kawerau,New Zealand,-38.086578,176.7036392,46.31,81,100,1.99
296,Arvika,Sweden,59.6548534,12.592136,64.92,29,30,8.32
297,Leningradskiy,Russia,69.36833299999999,178.416667,43.18,85,91,5.79
298,Faya,Chad,17.9236623,19.1107114,107.49,27,0,6.91
299,Doha,Qatar,25.2854473,51.53103979999999,103.95,22,0,6.91
300,Rabo De Peixe,Portugal,37.8077543,-25.5829107,68.07,64,40,16.11
301,Cabo San Lucas,Mexico,22.8905327,-109.9167371,78.44,83,91,3
302,Richards Bay,South Africa,-28.7807276,32.0382856,70.99,68,13,13.91
303,Velsk,Russia,61.06376580000001,42.0991053,51.8,96,100,5.77
304,Waw,Sudan,7.7091884,27.9834738,89.1,42,100,7.2
305,Laguna,Brazil,-28.4816918,-48.7689145,57.13,72,5,10
306,Bathsheba,Barbados,13.2101681,-59.5253545,83.48,65,75,20.71
307,Asau,Tuvalu,-7.488305,178.6806639,82.63,72,9,13.44
308,Colac,Australia,-38.3410186,143.5854622,50.74,82,100,6.96
309,Hue,Vietnam,16.4637117,107.5908628,87.89,74,20,1.14
310,Les Cayes,Haiti,18.2042851,-73.7536695,82.17,69,55,8.03
311,Rypefjord,Norway,70.64124699999999,23.6720798,54.36,58,40,10.36
312,Biltine,Chad,14.5333333,20.9166667,98.2,23,29,4.79
313,Pangnirtung,Canada,66.1465578,-65.7012182,39.45,73,99,1.5
314,Provideniya,Russia,64.4031643,-173.2064559,49.98,67,5,6.51
315,Visby,Sweden,57.6348,18.29484,57.38,77,20,10.36
316,Luba,Equatorial Guinea,3.4590145,8.552874599999999,77.2,87,58,6.33
317,Ponta Do Sol,Cape Verde,17.2004826,-25.0925624,76.78,86,77,11.95
318,Mehamn,Norway,71.0357069,27.848941,44.55,81,100,8.05
319,San Jose,Guatemala,13.9824116,-90.8865834,78.69,83,75,0
320,Karauzyak,Uzbekistan,43.0174717,60.011507,86.43,22,0,17.83
321,Sabzevar,Iran,36.2151823,57.6678228,94.19,21,40,0
322,Idritsa,Russia,56.331666,28.8927247,61.59,55,100,11.99
323,Yuli,Taiwan,23.3326186,121.3158222,80.13,88,100,3.8
324,Tura,Russia,64.27624060000001,100.2061164,64.06,41,95,14.7
325,North Bend,United States,47.4956579,-121.7867775,51.26,96,100,1.01
326,Zamora,Spain,41.5034712,-5.7467879,77.97,91,45,18.7
327,Yar-Sale,Russia,66.86258699999999,70.854469,77.02,30,100,15.39
328,Tonj,Sudan,7.267511499999999,28.678979,79.21,65,100,6.53
329,Moroto,Uganda,2.5282234,34.6579985,77.04,50,79,2.55
330,Ambilobe,Madagascar,-13.2026069,49.0514094,82.76,53,86,2.77
331,Lata,Solomon Islands,-10.7245517,165.7984425,79.16,81,96,2.33
332,Kongolo,DR Congo,-5.387502,26.9911288,87.04,40,100,0.47
333,Alyangula,Australia,-13.8509101,136.4195101,72.54,88,0,7.81
334,Kodinsk,Russia,58.60767269999999,99.1779092,64.04,70,100,0.81
335,Weston,United States,26.1003654,-80.3997748,82.27,79,97,1.99
336,Kruisfontein,South Africa,-33.9843356,24.732102,57.24,56,85,15.05
337,Tommot,Russia,58.9811665,126.2185785,60.67,73,0,5.64
338,Haines Junction,Canada,60.7544541,-137.5117818,37.35,81,15,1.14
339,Bisho,South Africa,-32.849876,27.4409557,59.61,53,77,8.21
340,Cidreira,Brazil,-30.1768565,-50.2089209,53.73,65,29,6.51
341,Marinette,United States,45.0999849,-87.6306623,53.65,58,78,5.95
342,Jawhar,Somalia,2.7774231,45.5016253,87.57,40,32,22.35
343,Lavrentiya,Russia,65.58354899999999,-171.038925,47.84,57,37,4.63
344,Pacifica,United States,37.6138253,-122.4869194,50.47,91,40,6.91
345,Manokwari,Indonesia,-0.8614531,134.0620421,78.64,82,34,2.46
346,Atambua,Indonesia,-9.1064894,124.8987786,72.41,82,100,4.99
347,Nurota,Uzbekistan,40.5631176,65.7015143,84.16,27,100,10.69
348,Ronne,Denmark,55.101017,14.708329,55.31,88,75,6.91
349,Pemba,Mozambique,-12.9732026,40.5178014,81.3,57,20,14.97
350,Hosangadi,India,13.7009721,74.962283,78.73,86,100,3.44
351,Lazaro Cardenas,Mexico,17.9567646,-102.1943485,76.6,84,21,2.28
352,Sisimiut,Greenland,66.9394722,-53.6733857,43.95,61,12,8.63
353,Saint-Augustin,Canada,51.2327688,-58.65154440000001,53.06,95,100,10.94
354,Santa Maria Da Boa Vista,Brazil,-8.8024598,-39.8253203,82.17,48,62,14.34
355,Maxixe,Mozambique,-23.8606069,35.3468034,78.66,50,40,13.8
356,Bafoulabe,Mali,13.8092603,-10.8345647,90.45,49,84,8.66
357,Hamilton,Bermuda,32.2945837,-64.7858887,77.79,80,0,13
358,Celestun,Mexico,20.8593042,-90.3972052,77.41,85,100,8.25
359,Camopi,French Guiana,3.1660209,-52.34138189999999,80.82,73,70,3.33
360,Springbok,South Africa,-29.6654618,17.8880075,55.18,33,99,12.59
361,Challapata,Bolivia,-18.9005419,-66.7694877,37.38,16,0,5.86
362,Cairns,Australia,-16.9203476,145.7709529,69.75,68,20,10.36
363,Sept-Iles,Canada,50.21329679999999,-66.3757921,44.87,89,100,14.97
364,Saint George,Bermuda,32.3819877,-64.6769793,77.81,80,0,17.36
365,Fereydun Kenar,Iran,36.68718399999999,52.5238579,77.79,62,16,8.23
366,Urdzhar,Kazakhstan,47.086965,81.6315231,77.58,47,7,1.36
367,Pavlodar,Kazakhstan,52.2873032,76.9674023,82.26,32,40,11.18
368,Te Anau,New Zealand,-45.41442929999999,167.7180426,36.09,95,43,4.27
369,Norman Wells,Canada,65.28149379999999,-126.8286524,53.64,71,75,3.44
370,Poshekhonye,Russia,58.5030781,39.1193785,60.08,93,100,9.26
371,Sibolga,Indonesia,1.7368371,98.78511209999999,77.86,85,94,3.02
372,Leh,India,34.1525864,77.57705349999999,59.45,30,97,4.36
373,Coihaique,Chile,-45.5712254,-72.068265,23.94,91,35,4.14
374,Zhicheng,China,30.29782,111.50082,76.39,94,64,2.84
375,Moerai,French Polynesia,-22.4512228,-151.3431677,73.29,64,70,17.74
376,Cayenne,French Guiana,4.92242,-52.3134531,77.95,1,40,0
377,Lipari,Italy,38.4936623,14.9272044,76.3,59,0,4.65
378,Boddam,United Kingdom,57.470373,-1.779524,55.78,85,93,29.04
379,Kargasok,Russia,59.0535405,80.8770601,73.42,62,22,1.41
380,Vanavara,Russia,60.3394104,102.2965425,58.06,94,100,2.04
381,Saint-Pierre,Saint Pierre and Miquelon,46.7758459,-56.1806363,55.36,94,75,24.16
382,Ahipara,New Zealand,-35.1713175,173.1533354,57.02,88,100,9.46
383,Sanmenxia,China,34.7727068,111.2000526,85.6,36,4,7.25
384,Dagana,Senegal,16.5105628,-15.5034785,81.25,72,100,4.05
385,Barreirinha,Brazil,-2.7992625,-57.0683804,80.55,78,100,3.65
386,Pemangkat,Indonesia,1.175333,108.970398,80.92,77,31,7.76
387,Rapid Valley,United States,44.0624879,-103.1462899,73.31,61,84,11.01
388,Warqla,Algeria,31.9527411,5.3335348,105.85,7,0,5.75
389,Reefton,New Zealand,-42.1195039,171.8622754,39.09,95,39,2.66
390,Quelimane,Mozambique,-17.8502636,36.9218584,78.75,53,40,8.05
391,Sarasau,Romania,47.9589759,23.8150407,83.03,46,0,3.13
392,Bogorodskoye,Russia,55.80889759999999,37.7058053,73.8,64,100,16.96
393,Iqaluit,Canada,63.74669300000001,-68.5169669,42.1,70,75,11.99
394,Los Llanos De Aridane,Spain,28.6577222,-17.9122017,72.05,83,40,12.66
395,San Carlos De Bariloche,Argentina,-41.1334722,-71.3102778,37.96,93,75,5.75
396,Batagay,Russia,67.66251299999999,134.65435,50.09,77,30,10.74
397,Morgan City,United States,29.6993748,-91.20676999999999,81,69,6,5.61
398,Akureyri,Iceland,65.6825509,-18.0906858,66,27,20,17.27
399,Aitape,Papua New Guinea,-3.1538273,142.3639991,78.22,86,3,4.34
400,Merzifon,Turkey,40.8544243,35.4404557,75.47,44,40,16.11
401,Lolua,Tuvalu,-9.370726,179.8089356,83.19,73,11,14.41
402,Jiangkou,China,27.7000556,108.8391897,74.82,97,100,1.83
403,Samarai,Papua New Guinea,-10.6120235,150.6640758,80.22,82,68,10.76
404,Uwayl,Sudan,8.7670867,27.3998369,90.52,40,100,7.38
405,Tautira,French Polynesia,-17.7496214,-149.1611957,77.88,71,28,21.88
406,Wewak,Papua New Guinea,-3.5800229,143.6583166,79.59,82,3,4.52
407,Shirokiy,Russia,49.76076370000001,129.5161337,57.45,85,0,7.07
408,Belmonte,Brazil,-15.8612616,-38.8798265,77.47,65,5,5.61
409,Aflu,Algeria,34.1139518,2.0973854,93.24,10,6,5.26
410,Chumikan,Russia,54.7165204,135.3084383,44.35,95,90,4.59
411,Tripoli,Libya,32.8872094,13.1913383,81.88,58,0,15.55
412,Kabinda,DR Congo,-6.137357799999999,24.4886232,90.37,26,70,1.59
413,Joensuu,Finland,62.6010155,29.7635719,54.09,87,100,14.97
414,Marsa Matruh,Egypt,31.3543445,27.2373159,80.76,52,0,12.48
415,Turukhansk,Russia,65.79585999999999,87.962418,73.8,36,6,9.73
416,Baft,Iran,29.233038,56.60089720000001,87.3,6,0,15.9
417,Crucisor,Romania,47.6933377,23.2280926,84.4,29,20,3.44
418,Panguna,Papua New Guinea,-6.308009,155.477221,65.82,97,32,1.57
419,Westport,Ireland,53.80213070000001,-9.514346699999999,57.96,78,81,15.61
420,Sao Joao Da Barra,Brazil,-21.6348912,-41.0442844,68.09,77,100,12.53
421,Murgab,Turkmenistan,37.4953637,61.97553610000001,93.06,24,75,13.8
422,Hambantota,Sri Lanka,6.1428829,81.12123079999999,84.54,79,20,11.5
423,Ngaoundere,Cameroon,7.338148800000001,13.5668302,79.97,56,99,2.1
424,Zhanatas,Kazakhstan,43.5569086,69.7352437,93.92,12,9,3.94
425,Gafanha Da Encarnacao,Portugal,40.61842240000001,-8.7335245,70.9,70,28,11.34
426,Beipiao,China,41.8007999,120.77091,75.58,66,5,5.41
427,Pasco,United States,46.2305049,-119.0922316,53.35,71,40,5.99
428,Ambatondrazaka,Madagascar,-17.8336363,48.4088007,64.8,81,77,8.77
429,Humaita,Brazil,-7.5169609,-63.0298508,78.13,59,20,2.59
430,Otane,New Zealand,-39.8962223,176.6278521,44.94,85,100,9.1
431,Codrington,Antigua and Barbuda,17.6425736,-61.8204456,80.13,77,33,18.95
432,Kudat,Malaysia,6.883057099999999,116.8466165,80.53,89,20,0
433,Nikolskoye,Russia,55.1981604,166.0015368,44.51,96,100,3.33
434,Hovd,Mongolia,47.9795218,91.634756,73.2,22,100,23.04
435,Brigantine,United States,39.4101171,-74.3645906,61.88,52,0,19.6
436,Santa Marta,Colombia,11.2403547,-74.2110227,80.71,83,40,4.61
437,Hosakote,India,13.0692593,77.7982428,80.94,65,40,6.91
438,Shingu,Japan,33.7241203,135.9924819,71.01,94,100,5.93
439,Port Blair,India,11.6233774,92.7264828,83.98,79,40,5.75
440,Nosy Varika,Madagascar,-20.5912573,48.5312279,70.2,84,65,7.58
441,Pontes E Lacerda,Brazil,-15.2324928,-59.32992989999999,73.99,67,5,2.93
442,Itigi,Tanzania,-5.706302,34.4946697,81.48,27,100,6.62
443,Abu Kamal,Syria,34.4653258,40.9081831,108.43,11,0,11.9
444,Kadhan,Pakistan,24.482478,68.9867458,94.96,46,0,24.14
445,Huilong,China,24.36907,115.52989,75.4,93,100,3.38
446,Novikovo,Russia,51.1526271,37.88823379999999,74.16,56,33,10.87
447,Cherskiy,Russia,68.742677,161.350784,53.37,58,100,6.26
448,Diffa,Niger,13.3132472,12.6158803,102.45,21,76,8.28
449,Murmashi,Russia,68.8109454,32.7883096,46.45,87,75,7
450,Udankudi,India,8.4271424,78.0260488,88.02,59,100,12.33
451,Olinda,Brazil,-7.992019300000001,-34.84223679999999,82.42,74,75,6.91
452,Borujerd,Iran,33.8941993,48.767033,98.85,6,0,15.21
453,Dauriya,Russia,49.9248455,116.8425181,67.78,68,100,17.16
454,Kostomuksha,Russia,64.5950323,30.6115492,47.17,95,100,10.33
455,Bansko,Bulgaria,41.8404241,23.485653,70.81,42,57,0.16
456,Cockburn Town,Bahamas,24.0527442,-74.5302159,81.57,69,99,6.08
457,Marabba,Sudan,12.3043,34.336521,93.54,32,98,11.3
458,Ciudad Bolivar,Venezuela,8.088279100000001,-63.5535552,79.12,74,84,10.87
459,Rongai,Kenya,-0.1705283,35.8552598,67.59,68,100,2.66
460,Vanimo,Papua New Guinea,-2.6896767,141.2998457,78.19,88,35,4.7
461,Muzaffarabad,Pakistan,34.3551036,73.4769458,73.4,74,89,4.72
462,Moyobamba,Peru,-6.0419882,-76.97006689999999,65.5,96,100,0.27
463,Labutta,Myanmar,16.149328,94.7562159,82.31,81,100,5.12
464,Chara,Russia,56.913055,118.250862,62.49,79,100,5.59
465,Tavda,Russia,58.0442892,65.25610879999999,64.33,90,100,1.43
466,Sorland,Norway,67.6635735,12.6926738,53.58,76,15,5.17
467,Dukat,Russia,62.5746833,155.362996,41.83,91,59,2.68
468,Yantal,Russia,56.8474279,105.2507738,59.81,89,77,2.51
469,Kaitangata,New Zealand,-46.2858467,169.8460662,43.61,87,100,5.03
470,Omsukchan,Russia,62.50940980000001,155.7859171,44.01,92,86,1.68
471,Kota Kinabalu,Malaysia,5.980408,116.0734568,84.16,79,20,3
472,Bahia Blanca,Argentina,-38.7183177,-62.2663478,47.7,67,100,8.32
473,Rawannawi,Kiribati,2.0516556,173.2633123,79.97,81,12,9.37
474,Nastola,Finland,60.948103,25.9337117,66.83,50,69,14.52
475,Roald,Norway,62.58346169999999,6.1248587,60.22,67,0,18.41
476,Nishihara,Japan,26.2228349,127.7588392,80.51,92,40,12.66
477,Port-Gentil,Gabon,-0.7351025999999999,8.7591311,80.58,69,20,14.97
478,Port Alberni,Canada,49.2338882,-124.8055494,53.35,91,100,1.99
479,Yumen,China,40.2917599,97.04542000000001,79.59,19,100,14.32
480,Klaksvik,Faroe Islands,62.2271922,-6.5779063,48.4,90,62,12.46
481,Volgodonsk,Russia,47.5004928,42.2027662,84.11,29,0,7.45
482,Puerto Escondido,Colombia,8.9936832,-76.2015572,75,88,100,8.52
483,Kankon,India,14.9976384,74.04113389999999,78.58,74,97,6.49
484,Ludwigslust,Germany,53.3244914,11.4969238,67.28,62,100,9.69
485,Kencong,Indonesia,-8.306383,113.335403,77.23,88,100,5.19
486,Ninh Binh,Vietnam,20.2506149,105.9744536,89.56,58,100,11.41
487,Nome,United States,64.50059089999999,-165.4086406,53.28,58,28,3.89
488,Tessalit,Mali,20.2573532,0.9910297999999998,99.95,17,100,7.02
489,Garango,Burkina Faso,11.8088575,-0.5352355999999999,91.74,41,100,1.9
490,Paraiso,Mexico,18.4006144,-93.2127162,76.19,90,100,2.01
491,Pasighat,India,28.0631741,95.32391969999999,73.44,96,76,2.86
492,Chagoda,Russia,59.1655805,35.3248918,65.62,62,82,9.73
493,Kamaishi,Japan,39.27580460000001,141.8857275,65.77,95,92,9.15
494,Phan Rang,Vietnam,11.5825677,108.9912066,81.12,85,31,6.82
495,Guarda,Portugal,40.5308408,-7.2221421,64.78,44,100,7.34
496,Butler,United States,39.8586568,-84.19900720000001,61.34,51,18,1.99
497,Telenesti,Moldova,47.4983962,28.3676019,81.43,32,0,1.63
498,Kroya,Indonesia,-7.632621800000001,109.2490653,78.06,88,99,7.72
499,Plastun,Russia,44.7543956,136.2875086,59.74,84,92,6.64
500,Casablanca,Morocco,33.5731104,-7.589843399999999,75.74,64,75,9.22
501,East Wemyss,United Kingdom,56.161291,-3.063495,61.56,57,100,8.99
502,Comodoro Rivadavia,Argentina,-45.8656149,-67.4822429,28.89,69,0,8.05
503,Bintulu,Malaysia,3.171322,113.0419069,77.92,88,20,1.14
504,Havre-Saint-Pierre,Canada,50.24181400000001,-63.598569,44.96,93,100,17.27
505,Marcona,Peru,-15.3618294,-75.16373229999999,60.98,80,57,10.18
506,Awbari,Libya,26.5810176,12.7939759,96.98,11,0,3.47
507,Halalo,Wallis and Futuna,-13.3436344,-176.2171202,82.89,71,99,15.41
508,Harper,Liberia,4.3759676,-7.700941599999999,80.46,75,100,5.44
509,Jinchang,China,38.5200599,102.18759,71.67,45,100,6.67
510,Pahalgam,India,34.0160751,75.3149796,58.03,86,100,4.29
511,Amudat,Uganda,1.9534181,34.9437716,77.67,52,100,3.36
512,Putla,Mexico,17.0320856,-97.9293247,68.77,88,30,4.92
513,Leshukonskoye,Russia,64.89734659999999,45.76517339999999,58.39,50,100,3.51
514,Okhotsk,Russia,59.35845999999999,143.203491,42.33,96,88,5.7
515,Den Helder,Netherlands,52.95628079999999,4.7607972,61.2,72,75,14
516,Ardistan,Iran,33.3794487,52.36987329999999,101.7,8,1,12.26
517,Bunda,Tanzania,-2.0185322,33.8746152,77.2,50,100,0.92
518,Alotau,Papua New Guinea,-10.3157027,150.4587795,76.51,92,46,4.65
519,Bend,United States,44.0581728,-121.3153096,44.35,80,100,3
520,Rafraf,Tunisia,37.1930207,10.1983431,85.28,66,6,17.72
521,Conceicao Do Araguaia,Brazil,-8.2625656,-49.2694666,87.12,37,10,2.86
522,Wasilla,United States,61.58087629999999,-149.4410597,49.73,82,100,2.93
523,Partizanskoye,Russia,55.5039361,94.4032885,62.83,79,9,4
524,Mackay,Australia,-21.1433971,149.1868281,67.89,80,84,14.36
525,Fox Lake,United States,42.3966874,-88.1836965,61.38,63,10,1.99
526,Nemuro,Japan,43.3301005,145.5828182,54.19,99,100,8.01
527,Prado,Brazil,-17.3341173,-39.2250661,77.67,65,14,4.83
528,Deputatskiy,Russia,69.30260299999999,139.958383,45.39,84,100,15.84
529,Riyadh,Saudi Arabia,24.7135517,46.6752957,112.86,4,4,6.76
530,Lompoc,United States,34.6391501,-120.4579409,49.68,84,100,8.99
531,Saquarema,Brazil,-22.8935085,-42.4683252,66,84,100,5.55
532,San Juan,Philippines,14.6019309,121.0355375,80.6,86,40,3.44
533,Mineiros,Brazil,-17.5635333,-52.552764,70.45,67,0,5.82
534,Arica,Chile,-18.4782534,-70.3125988,52.09,82,0,8.05
535,Amot,Norway,61.253824,11.5735122,61.83,31,98,6.24
536,Shadegan,Iran,30.6545969,48.6539268,116.58,5,1,11.63
537,Ghazipur,India,25.5877901,83.5783078,94.86,40,100,11.25
538,Erdenet,Mongolia,49.054082,104.0716533,52.25,82,1,4.38
539,Omboue,Gabon,-1.575187,9.2591571,79.09,66,53,12.33
540,Coron,Philippines,12.0489179,120.1519011,80.62,80,5,2.86
541,Aleppo,Syria,36.2021047,37.1342603,91.8,27,0,21.45
542,Jiaonan,China,29.900059,121.142933,73.15,92,100,4.45
543,Marshfield,United States,42.0917453,-70.7055871,52.74,94,75,4.61
544,Grand-Santi,French Guiana,4.2507342,-54.38225,80.31,76,100,3.29
545,Okha,Russia,53.5893264,142.9521875,45.23,90,99,7.43
546,Perris,United States,33.7825194,-117.2286478,51.76,88,0,1.01
547,Salisbury,United States,38.3606736,-75.5993692,64.2,54,0,1.01
548,Kaeo,New Zealand,-35.1003051,173.7803421,57.52,93,100,10.83
549,Bay-Khaak,Russia,51.158764,94.462876,61.02,80,100,4.14
550,Debre Tabor,Ethiopia,11.8566874,38.015522,66,45,97,5.57
551,College,United States,37.09024,-95.712891,75.69,86,20,7.87
552,Valley Station,United States,38.1024697,-85.871012,63.73,52,0,1.99
553,Meghraj,India,23.493949,73.5041133,91.36,53,100,10.89
554,La Tijera,Mexico,20.5874349,-103.4373747,63.25,96,36,0.34
555,Pergamino,Argentina,-33.8912831,-60.5745999,45.91,72,9,8.01
556,Rawson,Argentina,-43.2998581,-65.09948729999999,37.94,67,2,11.59
557,Souillac,Mauritius,-20.5180739,57.52638589999999,73.51,68,75,12.66
558,Victoria Point,Australia,-27.5879419,153.303966,58.28,87,75,1.01
559,Elko,United States,40.8324211,-115.7631232,48.58,48,100,3.87
560,Itapissuma,Brazil,-7.7761318,-34.8995726,82.35,63,58,7.38
561,Jakarta,Indonesia,-6.2087634,106.845599,83.32,71,93,5.17
562,Serowe,Botswana,-22.4036831,26.7142835,79.03,19,0,6.82
563,Kaliyaganj,India,25.6355626,88.3287896,81.25,81,100,2.75
564,Praya,Indonesia,-8.72174,116.288597,80.37,89,75,8.05
565,Sosnovka,Russia,52.4205149,43.5124204,72.79,54,100,11.41
566,Brae,United Kingdom,60.39685199999999,-1.3541129,55.22,77,16,17.58
567,Banda Aceh,Indonesia,5.5482904,95.3237559,80.85,68,99,0.72
568,Daru,Papua New Guinea,-9.078195899999999,143.2099707,78.69,90,100,18.66
569,Marzuq,Libya,25.9182262,13.9260001,96.48,10,0,1.43
570,Flinders,Australia,-38.4344541,144.9726306,49.3,86,100,7.74
571,Bihariganj,India,25.7330441,86.98774220000001,81.55,78,97,5.88
572,Bay Roberts,Canada,47.5820518,-53.2798524,71.73,74,35,1.99
573,Ust-Kulom,Russia,61.68657760000001,53.6893015,63.45,69,23,4.14
574,Niquero,Cuba,20.0390282,-77.5791358,79.56,74,100,3.91
575,Inirida,Colombia,3.8702044,-67.92433609999999,71.73,97,100,2.26
576,Sao Jose Da Coroa Grande,Brazil,-8.889756799999999,-35.151541,81.32,67,32,5.3
577,Portales,United States,34.1861922,-103.3343978,66.15,58,2,9.1
578,Chivilcoy,Argentina,-34.8969795,-60.0190731,49.98,49,21,12.62
579,Tahe,China,52.3343199,124.71003,62.94,52,100,4.38
580,Kamareddi,India,18.3204832,78.3369523,86.86,58,100,3.8
581,Guerrero Negro,Mexico,27.9591758,-114.056646,62.2,84,6,10
582,Tsogni,Gabon,-2.7404898,10.0303723,78.33,67,25,10.6
583,Satipo,Peru,-11.252678,-74.6371154,68.58,87,74,1.12
584,Gold Coast,Australia,-28.016667,153.4,59.95,89,100,8.05
585,Road Town,British Virgin Islands,18.4286115,-64.6184657,84.15,70,40,14.97
586,Bilma,Niger,18.6929789,12.9176518,104.79,8,0,14
587,Yirol,Sudan,6.5609799,30.5020001,71.35,93,100,3.74
588,Sretensk,Russia,52.243142,117.6968949,61.95,99,100,4.74
589,Dandong,China,39.9997999,124.35601,66.83,97,64,2.68
590,Viedma,Argentina,-40.8119087,-62.9962044,46.22,58,100,14.76
591,Anzio,Italy,41.4495955,12.6197253,85.23,30,2,9.35
592,Srednekolymsk,Russia,67.43730699999999,153.728674,56.88,51,100,12.06
593,Almaznyy,Russia,62.4492646,114.330405,69.26,55,100,11.36
594,Taoudenni,Mali,22.6764132,-3.9789143,100.67,24,97,13.09
595,Port Hedland,Australia,-20.3123929,118.6093685,71.62,73,0,2.3
596,Wuhu,China,31.3524599,118.43313,78.31,80,100,6.78
597,Ellensburg,United States,46.9965144,-120.5478474,50.88,73,83,15.01
598,Goderich,Sierra Leone,8.427560999999999,-13.285784,82.63,71,100,10.94
599,Burgos,Spain,42.3504659,-3.689354499999999,71.91,37,40,20.71
600,Menongue,Angola,-14.6594083,17.6984879,82.71,16,5,4.14
601,Boa Vista,Brazil,2.8206339,-60.6737553,78.78,89,75,10.36
602,Abbeville,United States,34.1781719,-82.3790147,67.96,62,0,10.27
603,Boffa,Guinea,10.1808254,-14.0391615,75.27,93,100,5.06
604,Margate,South Africa,-30.8458684,30.37237409999999,66.02,74,81,14.85
605,Pa Sang,Thailand,18.5189282,98.9300538,86.22,76,85,4.88
606,Voyvozh,Russia,62.8923542,54.96841209999999,65.5,44,95,2.28
607,Nicoya,Costa Rica,9.9590676,-85.35496499999999,75.33,89,96,2.26
608,Karpathos,Greece,35.5065632,27.2123511,76.96,65,20,39.12
609,Valley City,United States,46.9233129,-98.0031547,81.12,74,0,18.41
610,Yomitan,Japan,26.3960774,127.7444117,81.77,86,75,13
611,Lermontovka,Russia,44.1109665,42.9684183,83.88,23,9,11.18
612,Tuzha,Russia,57.6040772,47.9326354,57.49,81,100,6.71
613,Hoyerswerda,Germany,51.4388605,14.2536419,99.82,24,0,15.73
614,Cape Coast,Ghana,5.13151,-1.2794744,82.36,64,88,4.47
615,Zhanaozen,Kazakhstan,43.357629,52.8434912,88.9,17,9,16.06
616,Upata,Venezuela,8.0093062,-62.40155360000001,76.19,73,73,8.37
617,Sanger,United States,36.708006,-119.5559652,53.47,70,0,3.44
618,Santiago De Cao,Peru,-7.9551186,-79.23947609999999,59.09,86,57,13.73
619,Alindao,Central African Republic,5.037845300000001,21.2099808,79.21,70,93,3.6
620,Kisangani,DR Congo,0.5185303,25.2007728,79.99,73,100,2.1
621,Portland,Australia,-38.3380167,141.6041331,54.63,68,100,16.91
622,Mpongwe,Zambia,-13.5119941,28.1561533,80.4,24,33,3.87
623,Sembe,Republic of the Congo,1.6201529,14.8454619,82.17,62,98,2.51
624,Williston,United States,48.1469683,-103.6179745,70.07,86,86,3
625,Noumea,New Caledonia,-22.2734912,166.4480887,72.7,99,94,12.73
626,Rawah,Iraq,34.4788822,41.9146854,110.62,11,0,15.59
627,Hokitika,New Zealand,-42.7156909,170.9683049,44.47,75,0,6.04
628,Pasaje,Ecuador,-3.3259044,-79.8056661,71.26,86,97,0.76
629,Lira,Uganda,2.2580829,32.8874067,75.85,68,95,3.33
630,San Isidro,Philippines,15.2965633,120.907304,82.02,77,89,3.94
631,Sinkat,Sudan,18.8320729,36.8304102,101.7,10,77,16.73
632,Boende,DR Congo,-0.2842862,20.8850949,85.59,49,96,4.29
633,Edd,Eritrea,13.9297861,41.6902268,94.42,50,45,13.91
634,Tumannyy,Russia,68.878911,35.6675264,41.38,95,100,11.54
635,Bonthe,Sierra Leone,7.525702799999999,-12.5039922,83.57,62,41,10.65
636,Mnogovershinnyy,Russia,61.52401,105.318756,57.72,95,100,6.76
637,Ruatoria,New Zealand,-37.8898127,178.3191491,48.65,80,100,8.86
638,Touros,Brazil,-5.200110500000001,-35.4590878,84.11,63,12,12.91
639,Katsina,Nigeria,12.9815608,7.622266499999999,95.02,30,100,5.84
640,Yerbogachen,Russia,61.2776586,108.0136671,63.81,78,100,7.65
641,Basavana Bagevadi,India,16.5681108,75.9753516,87.37,48,100,17.81
642,Mayumba,Gabon,-3.4426092,10.6562606,75.74,75,100,11.03
643,Klyuchi,Russia,56.3220231,160.8433324,49.6,80,100,1.77
644,San Patricio,Mexico,19.2251985,-104.703973,77,73,75,6.91
645,Ringas,India,27.3766238,75.5579722,82.35,59,59,4.54
646,Sioux Falls,United States,43.5460223,-96.731265,77.85,78,68,7
647,Leshan,China,29.5522099,103.76539,79.66,72,95,0.49
648,Elat,Israel,29.557669,34.951925,98.44,23,0,13.8
649,San Francisco,Argentina,-31.42499919999999,-62.0841599,51.89,56,8,12.66
650,Bathurst,Canada,47.6183507,-65.6513358,50.45,93,100,5.75
651,Darhan,Mongolia,49.4648434,105.9745919,58.24,77,0,3.56
652,Vung Tau,Vietnam,10.4113797,107.136224,83.53,78,50,8.3
653,Hays,United States,40.4030972,-79.9612368,57.29,70,96,3
654,Arlit,Niger,18.7390029,7.3894772,104.23,12,6,4.14
655,Uglekamensk,Russia,43.2163996,133.2332142,65.62,75,90,3.11
656,Guasdualito,Venezuela,7.2397806,-70.70495199999999,75.24,100,75,4.61
657,Neuquen,Argentina,-38.9516784,-68.0591888,44.49,70,75,0
658,Wieliczka,Poland,49.9870619,20.0647971,89.44,30,0,5.64
659,Totoral,Bolivia,-18.4944578,-66.8752014,36.07,12,0,3.8
660,Ploemeur,France,47.735695,-3.42714,59.5,88,100,12.66
661,Kampil,India,27.6122947,79.2775316,98.89,27,7,9.6
662,Falmouth,United States,41.5532208,-70.60858859999999,51.84,79,100,18.01
663,Dwarka,India,22.2441975,68.96845619999999,87.37,73,2,16.06
664,Petersburg,United States,37.2279279,-77.40192669999999,65.37,50,0,8.05
665,Oliver,Canada,49.1823264,-119.550428,54.34,100,89,0
666,Bolshaya Dzhalga,Russia,45.9797605,42.7002649,89.01,23,54,6.98
667,Ambon,Indonesia,-3.6386665,128.1688559,76.39,15,75,5.75
668,Scarborough,Trinidad and Tobago,11.1869803,-60.7301511,82,61,20,13.8
669,Grand Gaube,Mauritius,-20.014212,57.6694082,74.39,64,40,5.01
670,Santa Fe,United States,35.6869752,-105.937799,56.39,85,100,5.01
671,Sangeorz-Bai,Romania,47.3640822,24.6750748,76.78,54,45,4.76
672,Gwadar,Pakistan,25.2460129,62.2861215,87.26,71,0,17.56
673,Poros,Greece,37.5206262,23.4716567,79.56,57,6,18.1
674,Mosquera,Colombia,4.7092566,-74.22622989999999,46.45,100,75,2.3
675,Stromness,United Kingdom,58.96619399999999,-3.296495,50.88,88,93,25.01
676,Guarapari,Brazil,-20.6738927,-40.4999838,73.87,86,91,10.29
677,Wainwright,Canada,52.8433695,-110.8505156,56.71,88,100,6.69
678,Rungata,Kiribati,-1.3493599,176.445007,81.37,76,1,13.73
679,Baihar,India,22.101223,80.54940069999999,75.97,86,95,2.59
680,Oussouye,Senegal,12.4884485,-16.543676,86,62,100,15.82
681,Falealupo,Samoa,-13.4993052,-172.7872919,82.31,75,19,20.22
682,Muros,Spain,42.8073676,-9.0460525,59.36,76,100,12.62
683,Nioro,Mali,15.2323839,-9.590751400000002,93.25,46,75,4.61
684,Ayan,Russia,56.45405599999999,138.167328,44.65,95,91,5.32
685,Japura,Brazil,-1.8799669,-66.9987762,77.54,72,36,2.64
686,Jambi,Indonesia,-1.6101229,103.6131203,74.75,96,99,2.3
687,Rabat,Morocco,33.9715904,-6.8498129,75.06,71,40,9.22
688,Coruripe,Brazil,-10.1249995,-36.1761498,79.43,77,1,5.93
689,Kayerkan,Russia,69.36666699999999,87.733333,60.93,38,100,8.25
690,Ballina,Ireland,54.1149482,-9.1550693,56.73,85,82,7
691,Bilibino,Russia,68.05359949999999,166.448224,54.23,65,96,2.35
692,Sao Miguel Do Araguaia,Brazil,-13.2753398,-50.1680878,85.01,34,5,3.62
693,Uruzgan,Afghanistan,32.9271287,66.1415263,82.92,9,1,7.7
694,Port Keats,Australia,-14.250637,129.549659,73.29,36,64,6.55
695,Mandalgovi,Mongolia,45.7631589,106.2650297,55.78,67,0,17.78
696,Xinxiang,China,35.3032299,113.92675,94.73,24,8,8.57
697,Mount Isa,Australia,-20.7263687,139.4930159,62.44,48,91,4.61
698,Aykhal,Russia,65.94171899999999,111.488113,50.27,50,34,17.49
699,Watari,Japan,38.0378009,140.8525347,69.71,88,75,3.44
700,Ishigaki,Japan,24.4064027,124.1754442,80.4,94,75,4.61
701,Carauari,Brazil,-4.8817663,-66.9047176,78.24,61,57,2.26
702,Yining,China,43.9771499,81.52732,73.35,42,100,11.5
703,Roma,Australia,-26.5710799,148.7856852,57,67,95,6.15
704,Mednogorsk,Russia,51.40379129999999,57.5832356,70.2,62,59,15.05
705,Gigmoto,Philippines,13.7912671,124.3532417,78.04,85,24,4.88
706,Atar,Mauritania,20.5072923,-13.052978,95.09,24,100,4.61
707,Diourbel,Senegal,14.6561238,-16.2345633,87.96,66,75,9.22
708,Peniche,Portugal,39.3603291,-9.387622,70.02,82,4,11.01
709,Aksu,China,41.1676299,80.26338,73.92,36,100,5.28
710,Kahului,United States,20.8893016,-156.4728725,75.81,79,20,10.36
711,Yarkovo,Russia,64.671722,170.4226679,49.78,82,99,11.83
712,Saleaula,Samoa,-13.4482906,-172.3367114,82.08,75,39,18.68
713,Fonte Boa,Brazil,-2.5151654,-66.09589749999999,78.01,57,98,2.42
714,Suntar,Russia,62.15491859999999,117.6331338,68.07,57,100,4.7
715,Koumac,New Caledonia,-20.549448,164.2707509,72.19,78,49,19.06
716,Half Moon Bay,United States,37.4635519,-122.4285862,50.02,89,40,6.91
717,Port-De-Paix,Haiti,19.9348887,-72.8308692,81.48,69,100,6.13
718,Komsomolskiy,Russia,54.4353487,45.8207127,66.67,67,100,15.64
719,Novovasylivka,Ukraine,46.83117319999999,35.7512432,81.63,37,70,8.1
720,Lang Son,Vietnam,21.853708,106.761519,81.01,82,29,4.79
721,Ati,Chad,13.2166179,18.3385977,97.75,28,100,10.11
722,Urengoy,Russia,65.96178739999999,78.3726069,74.52,41,100,8.68
723,Babanusah,Sudan,11.320725,27.8135579,96.15,27,100,5.48
724,Bogale,Myanmar,16.2864333,95.40180869999999,78.8,89,100,2.42
725,Yayva,Russia,59.3395392,57.2632833,69.84,50,65,4.85
726,San Jose De Gracia,Mexico,22.1475929,-102.4129804,58.03,82,0,6.71
727,Fallon,United States,39.4748693,-118.7770407,46.45,63,0,8.63
728,Uk,Russia,61.52401,105.318756,57.72,95,100,6.76
729,Bubaque,Guinea-Bissau,11.2987384,-15.8378366,78.64,84,100,18.21
730,Birao,Central African Republic,10.2933091,22.7822485,94.28,34,100,4.83
731,Coahuayana,Mexico,18.7372222,-103.6688888,76.33,83,99,3.09
732,Moree,Australia,-29.465303,149.8415676,56.03,67,100,5.23
733,Druzhba,Ukraine,52.04024520000001,33.9293828,73.74,64,59,15.64
734,Teneguiban,Philippines,11.3220679,119.4991693,82.18,78,42,5.59
735,Kudahuvadhoo,Maldives,2.6707039,72.8914233,83.8,68,100,8.41
736,Rohnert Park,United States,38.3396367,-122.7010984,47.17,84,0,0
737,Cioroiasiu,Romania,44.0878605,23.4532829,85.5,28,5,6.71
738,Farafangana,Madagascar,-22.817412,47.81803800000001,70.7,75,12,6.91
739,Benghazi,Libya,32.1194242,20.0867909,80.62,51,0,10.58
740,Urumqi,China,43.8266299,87.61688,80.1,28,0,8.95
741,Veraval,India,20.9158979,70.3628516,86.61,72,100,13.35
742,Fuerte Olimpo,Paraguay,-21.046694,-57.87649460000001,65.8,42,89,4.56
743,Amuntai,Indonesia,-2.416604,115.239098,74.14,97,84,0.67
744,Weslaco,United States,26.1595194,-97.9908366,78.35,94,0,0
745,Sungairaya,Indonesia,-0.2467982,109.6163185,80.35,96,25,3.15
746,Barinas,Venezuela,8.6231498,-70.2371045,76.91,83,100,3.44
747,Ixtapa,Mexico,17.6625661,-101.58734,78.08,78,93,4.59
748,Bergen,Netherlands,52.6749368,4.706394599999999,62.92,64,100,5.01
749,Concordia,Argentina,-31.3913921,-58.01743399999999,46.71,80,6,7.31
750,Espanola,United States,35.9910383,-106.0818233,60.82,91,100,3.58
751,Sumbawa,Indonesia,-8.738071999999999,118.1171082,72.46,86,86,5.82
752,Matadi,DR Congo,-5.8508719,13.4627375,83.35,46,34,4.65
753,Tomatlan,Mexico,19.9344504,-105.2516629,77.41,80,100,2.82
754,Iskateley,Russia,67.6766098,53.1295176,57.56,62,100,9.8
755,Samagaltay,Russia,50.60017999999999,94.999641,61.88,66,66,11.48
756,Gizo,Solomon Islands,-8.1058258,156.8349986,81.66,73,14,3.11
757,Cam Pha,Vietnam,21.0718937,107.3201023,82.9,88,87,3.87
758,Iralaya,Honduras,14.9974643,-83.2251702,79.14,85,100,13.22
759,Neryungri,Russia,56.6575311,124.711,55.04,65,4,4.56
760,Wembley,Canada,55.15471410000001,-119.1411576,51.04,87,75,9.22
761,Peringat,Malaysia,6.020314000000001,102.2861441,84.11,74,20,4.61
762,Dingle,Ireland,52.2040594,-10.1242982,55.83,78,69,20.36
763,Waingapu,Indonesia,-9.6646545,120.2498483,76.55,85,100,7.94
764,De-Kastri,Russia,51.475113,140.769104,51.46,95,100,3.65
765,Tutayev,Russia,57.8675746,39.5333394,61.81,89,100,11.1
766,Begoro,Ghana,6.3916263,-0.3795438,77.2,77,87,1.14
767,Porto Santo,Portugal,33.0759749,-16.3346061,70.83,68,40,20.71
768,Kalmunai,Sri Lanka,7.414383099999999,81.8306334,85.37,71,100,13.31
769,Tres Arroyos,Argentina,-38.3775437,-60.27522949999999,48.76,44,100,13.49
770,Codajas,Brazil,-3.8398596,-62.0609996,81.81,68,78,3.56
771,Salamiyah,Syria,35.0113982,37.0561339,92.43,18,0,21.25
772,Troitskoye,Russia,50.7602881,127.9377163,58.23,79,12,2.62
773,Kalomo,Zambia,-17.0299054,26.4783981,78.66,17,0,6.93
774,Rundu,Namibia,-17.9253295,19.7532148,83.39,13,2,6.98
775,Qasigiannguit,Greenland,68.8219742,-51.1817887,38.35,66,80,6.26
776,Atherton,Australia,-17.2666843,145.4768687,58.26,87,36,7.85
777,Sakakah,Saudi Arabia,29.87800309999999,40.1043057,111.42,8,0,11.5
778,Kargil,India,34.5538522,76.1348944,62.74,43,67,8.68
779,Teruel,Spain,40.3456879,-1.1064345,87.08,15,0,21.85
780,Fort Smith,United States,35.3843722,-94.42096459999999,76.37,70,15,8.99
781,Albemarle,United States,38.0567092,-78.6114999,63.01,45,18,1.01
782,Pocone,Brazil,-16.2645026,-56.6281145,74.41,69,5,2.08
783,Ulaanbaatar,Mongolia,47.88639879999999,106.9057439,55.44,82,75,13.42
784,Bacolod,Philippines,10.6840053,122.9563021,79.7,82,100,3.65
785,Dubbo,Australia,-32.2443908,148.614418,50.18,87,100,8.05
786,Samusu,Samoa,-14.0056774,-171.4299586,81.52,77,49,17.11
787,Yanan,China,36.5852899,109.48978,77.77,35,61,7.34
788,Egvekinot,Russia,66.3236774,-179.122453,42.6,94,38,2.8
789,La Grande,United States,45.3245771,-118.0877188,41.72,88,100,5.14
790,Gondanglegi,Indonesia,-8.183743,112.641602,71.49,97,94,2.75
791,Yarovoye,Russia,52.9322752,78.5731129,73.83,54,94,9.86
792,Gornopravdinsk,Russia,60.06797999999999,69.9156299,78.49,42,100,4.18
793,Mbandaka,DR Congo,0.0265717,18.2970692,80.33,61,99,2.44
794,Pochutla,Mexico,15.7489259,-96.4672856,74.66,86,100,2.82
795,Kitimat,Canada,54.0632661,-128.637191,54.19,34,97,1.01
796,Aksay,Russia,47.2641365,39.8712732,87.94,25,14,3
797,Acapulco,Mexico,16.8531086,-99.8236533,75.4,85,99,5.26
798,Meyungs,Palau,7.352715099999999,134.4488579,82.09,71,100,3.67
799,Waitara,New Zealand,-39.0022823,174.2353003,47.97,88,100,16.08
800,Havelock,United States,34.8790492,-76.9013301,69.39,56,5,5.99
801,Sarakhs,Iran,36.5372242,61.1560959,94.48,22,60,20.67
802,Gali,Georgia,42.6259555,41.73491689999999,75.74,72,88,8.08
803,Debre Birhan,Ethiopia,9.6766588,39.5329976,70.84,28,95,18.59
804,Krasnyy Kut,Russia,50.9471841,46.9716104,75.15,49,71,12.01
805,Coari,Brazil,-4.0959143,-63.14226610000001,80.76,63,13,1.83
806,Shelburne,Canada,43.7643579,-65.3240227,60.57,65,36,9.15
807,Bolungarvik,Iceland,66.1517719,-23.261709,55.99,58,100,9.22
808,Mityana,Uganda,0.4016398,32.043969,73.9,55,100,4.5
809,Amberley,New Zealand,-43.1576041,172.7301547,43.02,87,87,13.96
810,Karaidel,Russia,55.8429698,56.8948472,64.4,85,41,7.9
811,Asyut,Egypt,27.1783117,31.1859257,98.76,10,7,18.63
812,Tonekabon,Iran,36.8153575,50.8710828,78.71,76,50,5.21
813,Dunmore East,Ireland,52.1527666,-6.994803999999999,59.97,66,75,12.66
814,Laurel,United States,39.0992752,-76.8483061,62.98,54,0,9.22
815,Greenfield,United States,42.587915,-72.5994104,56.73,65,92,1.99
816,Maniitsoq,Greenland,65.4076761,-52.90057179999999,41.5,91,99,6.04
817,Warrington,United States,40.2492741,-75.1340604,58.95,52,0,8.05
818,Ust-Tsilma,Russia,65.4338788,52.1540756,57.74,66,98,5.55
819,Zlate Moravce,Slovakia,48.3851703,18.3912685,82.9,37,4,11.01
820,Ardmore,United States,40.0067785,-75.2854622,59.63,51,0,8.05
821,Santa Maria,United States,34.9530337,-120.4357191,49.33,94,0,3.91
822,Kapuskasing,Canada,49.38026800000001,-82.40012899999999,46.18,76,100,3.44
823,Hurricane,United States,37.09024,-95.712891,75.69,86,20,7.87
824,Marathon,United States,24.726026,-81.0446262,84,82,15,1.01
825,Kandrian,Papua New Guinea,-6.2066294,149.5339941,75.76,88,6,3.76
826,Kizukuri,Japan,35.0300055,135.492494,71.51,98,100,1.39
827,Baghdad,Iraq,33.315241,44.3660671,118.35,11,0,13.8
828,La Palma,Panama,8.2853585,-78.1792434,75.96,88,100,1.05
829,Buala,Solomon Islands,-8.1662459,159.6189829,77.99,80,11,3.09
830,Mogadishu,Somalia,2.0469343,45.3181623,85.33,66,40,20.71
831,Igrim,Russia,63.1967494,64.4226214,72.16,59,100,6.33
832,Gladstone,Australia,-23.8415948,151.2497708,64.54,68,72,4.61
833,Kapra,India,17.4885251,78.5681716,78.71,89,100,2.3
834,Dakar,Senegal,14.716677,-17.4676861,85.78,70,75,11.5
835,Shuangcheng,China,45.1845399,126.18618,73.27,56,100,6.46
836,Estelle,United States,29.8457628,-90.10673980000001,84.56,71,4,4
837,Yondo,Colombia,6.951009099999999,-74.1709702,73.47,99,100,0.6
838,Topeka,United States,39.0473451,-95.67515759999999,76.98,86,5,4
839,Gorno-Chuyskiy,Russia,57.6386635,111.7329347,59.16,78,36,8.12
840,Itacare,Brazil,-14.2791757,-38.9928508,77.25,67,18,6.46
841,Ratnagiri,India,16.990215,73.31202329999999,81.75,78,100,7.52
842,Ramgarh,India,29.4464076,79.5596415,75.78,47,67,2.48
843,Maragogi,Brazil,-9.0127139,-35.2213834,81.09,68,53,4.94
844,Yambio,Sudan,4.5775693,28.3987842,72.7,83,100,3.67
845,Bellegarde-Sur-Valserine,France,46.10759900000001,5.826179,93.51,26,0,11.25
846,Sinazongwe,Zambia,-17.2223622,27.4791295,76.71,45,0,10.74
847,Capanema,Brazil,-25.6719174,-53.80785230000001,53.83,70,93,3.8
848,Morro Bay,United States,35.3659445,-120.8499924,48.18,90,0,6.13
849,Eregli,Turkey,37.512316,34.048806,84.97,27,3,8.34
850,Stornoway,United Kingdom,58.209435,-6.3848692,54.59,75,75,18.41
851,Havoysund,Norway,70.9963358,24.6623873,43.03,81,42,14.38
852,Lufkin,United States,31.3345562,-94.7321127,76.06,93,0,3.65
853,San Borja,Bolivia,-14.8584943,-66.7470439,68.95,58,0,1.21
854,Kihurio,Tanzania,-4.4654444,38.0750461,82.44,42,95,10.18
855,Rio Grande,Brazil,-29.3646459,-51.6657692,44.1,58,96,1.99
856,Mahon,Spain,39.8873296,4.259619499999999,84.58,51,0,21.85
857,Jieshi,China,22.81723,115.83047,81.12,87,100,8.03
858,San Vicente De Canete,Peru,-13.0764767,-76.3848832,62.85,72,54,1.99
859,Fortuna,United States,40.5981867,-124.1572756,53.91,82,100,1.99
860,Mangaluru,India,12.9141417,74.8559568,83.21,78,40,8.05
861,Jijiga,Ethiopia,9.356783799999999,42.7955185,76.78,43,99,15.46
862,Fort Nelson,Canada,58.8050174,-122.697236,46.04,100,40,3.44
863,Yantongshan,China,30.074107,120.7667,77,90,100,6.51
864,Aswan,Egypt,24.088938,32.8998293,106.41,11,0,12.46
865,Khuzdar,Pakistan,27.8164837,66.6057378,97.32,7,0,18.92
866,Maldonado,Uruguay,-34.9018717,-54.9634343,49.89,50,0,12.66
867,Suao,Taiwan,24.594229,121.8533264,84.43,99,100,4.43
868,Ransang,Philippines,8.895582500000002,117.5730639,80.55,78,85,2.06
869,Zhanakorgan,Kazakhstan,43.9082043,67.24177,99.64,11,100,15.46
870,Saint-Prosper,Canada,46.2128391,-70.4790446,44.89,66,100,9.46
871,Paita,Peru,-5.0938488,-81.0962172,63.5,78,95,11.63
872,Mbini,Equatorial Guinea,1.5831291,9.6146499,78.8,79,96,11.81
873,Susanville,United States,40.4162842,-120.6530063,36.91,88,0,5.75
874,Nouadhibou,Mauritania,20.9425179,-17.0362272,84.07,61,71,5.75
875,Livingston,United States,45.6614105,-110.5599556,57.63,74,100,4.25
876,Lamu,Kenya,-2.2695575,40.9006408,80.67,70,100,15.7
877,Castelo Do Piaui,Brazil,-5.322994,-41.54956749999999,88.21,41,20,7.54
878,Hanko,Finland,59.82834889999999,22.9658712,64.17,69,41,16.8
879,Baker City,United States,44.7748748,-117.8343848,40.75,92,12,5.14
880,Nuuk,Greenland,64.18140989999999,-51.694138,41.86,93,100,2.19
881,Ilhabela,Brazil,-23.8165908,-45.3667925,64.74,83,100,6.69
882,Wajima,Japan,37.3904768,136.8992581,68.38,97,23,10.36
883,Yabelo,Ethiopia,4.8949753,38.1001629,72.88,43,100,8.19
884,Nang Rong,Thailand,14.6335733,102.7934934,78.57,83,100,6.96
885,Manzanillo,Mexico,19.1138094,-104.3384616,77,77,100,2.46
886,Lapua,Finland,62.9719717,23.0023632,54.88,73,100,2.8
887,Gravdal,Norway,68.1203112,13.5365568,53.67,82,40,12.66
888,Kamenskoye,Russia,62.46661,166.211243,42.1,93,53,4.74
889,Aksarka,Russia,66.5619233,67.80145399999999,65.79,71,100,4.05
890,Semey,Kazakhstan,50.4233463,80.250811,80.65,34,0,8.95
891,Tallahassee,United States,30.4382559,-84.28073289999999,81.12,68,0,3
892,Acarau,Brazil,-2.8979192,-40.11921770000001,82.47,70,99,14.52
893,Penzance,United Kingdom,50.118798,-5.537592,56.86,74,100,24.81
894,Puerto Del Rosario,Spain,28.500821,-13.8628367,74.95,73,20,19.57
895,Mayor Pablo Lagerenza,Paraguay,-19.9210258,-60.7766392,68.11,37,0,7.65
896,Lokosovo,Russia,61.131389,74.855278,76.8,40,95,1.79
897,Marsabit,Kenya,2.3354966,37.9943453,77.4,39,91,15.03
898,Nhulunbuy,Australia,-12.1835392,136.7860989,77.54,88,20,8.05
899,Zhezkazgan,Kazakhstan,47.79636559999999,67.7020019,89.71,14,75,15.66
900,Porosozero,Russia,62.97694399999999,32.316667,50.5,98,100,6.73
901,Kano,Nigeria,12.0021794,8.591956099999999,89.64,55,20,8.05
902,Ternate,Indonesia,0.7957999,127.3613533,76.5,76,97,4.25
903,Poum,New Caledonia,-20.2320314,164.0238768,74.52,73,90,25.39
904,Tocopilla,Chile,-22.0886778,-70.1960541,63.7,57,0,6.29
905,Abha,Saudi Arabia,18.2464685,42.5117238,89.74,6,40,14.97
906,Jiddah,Saudi Arabia,21.485811,39.19250479999999,94.91,62,100,14.72
907,Balimo,Papua New Guinea,-8.0053888,142.9036317,74.59,98,81,2.98
908,Dulce Grande,Mexico,23.0033639,-102.1761344,60.42,83,18,13
909,Moron,Mongolia,49.6428895,100.1771896,65.59,38,26,2.35
910,Necochea,Argentina,-38.5544968,-58.73960879999999,50.41,52,100,16.8
911,La Libertad,El Salvador,13.6817661,-89.3606298,66.47,100,100,2.66
912,Launceston,Australia,-41.439068,147.1357671,50.13,86,75,5.75
913,Bambanglipuro,Indonesia,-7.9421019,110.3136865,77.67,88,73,8.7
914,Vysokogornyy,Russia,50.09595849999999,139.1234247,51.78,98,100,2.95
915,Sambava,Madagascar,-14.2713338,50.1678121,74.08,85,38,12.24
916,Mbalmayo,Cameroon,3.5144204,11.5077573,78.48,71,97,2.01
917,Nuevitas,Cuba,21.5500232,-77.2692503,80.06,73,67,6.08
918,Mandurah,Australia,-32.5361038,115.7424077,60.8,74,50,8.32
919,Panzhihua,China,26.5822799,101.71872,81.3,63,100,2.91
920,Nouakchott,Mauritania,18.0735299,-15.9582372,84.18,79,100,14.34
921,Wanning,China,18.7953199,110.38975,82.62,93,100,11.92
922,Takoradi,Ghana,4.9015794,-1.7830973,81.55,67,100,4.9
923,Xiuyan,China,40.2899799,123.28171,68.13,94,5,3
924,Kastron,Greece,38.4937481,23.1602932,79.97,43,0,17.81
925,Manakara,Madagascar,-22.1432288,48.00598249999999,70.48,79,9,6.15
926,Junin,Peru,-11.1581925,-75.9926306,38.62,62,35,2.1
927,Skibbereen,Ireland,51.55592439999999,-9.262130299999999,58.05,60,97,16.98
928,Allapalli,India,17.8299145,80.4799273,86.9,61,99,3.31
929,Buzmeyin,Turkmenistan,38.058734,58.177902,94.66,26,75,16.11
930,Koungou,Mayotte,-12.736928,45.2054349,82.09,69,40,13.8
931,Sydney,Australia,-33.8688197,151.2092955,54.16,80,75,6.91
932,Dezful,Iran,32.3839747,48.399618,120.56,4,0,8.5
933,Kamennomostskiy,Russia,56.1327377,159.5314398,45.21,77,100,5.3
934,Ordzhonikidze,Ukraine,47.6572805,34.07859000000001,78.26,41,2,1.25
935,La Ronge,Canada,55.10823,-105.285989,59.05,94,100,4.61
936,Ibia,Brazil,-19.4878116,-46.5450499,71.22,56,0,6.31
937,Kokkola,Finland,63.8415002,23.1250337,53.28,87,100,5.75
938,Kijang,Indonesia,-0.789275,113.921327,73.17,98,100,0.58
939,Marsaxlokk,Malta,35.8411699,14.5393097,82.83,51,20,9.22
940,Sicamous,Canada,50.8378243,-118.9768156,54.55,98,100,0.72
941,Henderson,United States,36.0395247,-114.9817213,64.98,22,0,18.41
942,Tabukiniberu,Kiribati,-1.340321,175.99517,81.48,76,5,14.36
943,Bonavista,Canada,48.6533449,-53.11182489999999,55.56,88,80,17.78
944,Batagay-Alyta,Russia,67.79280899999999,130.401779,52.32,53,32,14.94
945,Vanderhoof,Canada,54.01397979999999,-124.0129801,47.79,92,86,7.7
946,Pitimbu,Brazil,-7.474863999999999,-34.8103127,83.08,67,66,9.82
947,Lugovoy,Russia,59.884722,65.89999999999999,64.27,92,100,5.73
948,Honningsvag,Norway,70.9822909,25.9702074,42.55,87,100,17.27
949,Castlemaine,Australia,-37.06328999999999,144.2172327,48.78,93,100,5.64
950,Tyler,United States,32.3512601,-95.30106239999999,78.55,81,0,1.01
951,Bom Jardim,Brazil,-22.1631595,-42.4257923,61.88,97,100,1.74
952,Kloulklubed,Palau,7.040244599999999,134.256193,83.8,68,100,3.74
953,Onufriyivka,Ukraine,48.90580430000001,33.4527302,76.64,42,1,7.16
954,Broken Hill,Australia,-31.9595859,141.4608138,54.18,55,100,8.86
955,Mwense,Zambia,-10.3869996,28.7023068,86.41,20,0,2.95
956,Camabatela,Angola,-8.1874595,15.3745964,84.85,20,82,1.59
957,Anchorage,United States,61.2175758,-149.8996785,50.92,84,100,13
958,Spornoye,Russia,62.33970799999999,151.105852,51.24,68,77,3.67
959,Tawang,India,27.5860574,91.8594062,54.72,100,100,2.89
960,Chingirlau,Kazakhstan,51.0980599,54.0840717,74.64,46,59,11.41
961,Zinder,Niger,13.8018124,8.98527,96.66,41,0,13.8
962,Cayambe,Ecuador,0.0425351,-78.1458804,46.72,89,100,2.26
963,Altay,China,47.84563989999999,88.14023,70.36,44,100,12.82
964,Port-Cartier,Canada,50.0212524,-66.8760025,44.73,84,100,12.15
965,Kanigoro,Indonesia,-8.1186669,112.2026347,74.14,92,100,5.5
966,Tikrit,Iraq,34.5990025,43.675025,117.46,7,0,13.47
967,Zaria,Nigeria,11.1247243,7.725376,92.03,33,76,1.12
968,Stanislav,Ukraine,48.922633,24.711117,82.47,39,0,5.68
969,Merauke,Indonesia,-8.4991117,140.4049814,77.5,89,100,13.69
970,Kidal,Mali,18.4520713,1.4096535,100.44,17,97,4.52
971,Falam,Myanmar,22.9141928,93.6750005,61.41,94,100,3.56
972,Nyurba,Russia,63.2803099,118.3618985,64.51,71,12,12.35
973,Cabedelo,Brazil,-7.0402944,-34.8430206,83.05,74,40,9.22
974,Cascais,Portugal,38.6970565,-9.4222945,71.6,63,40,13
975,Kaili,China,26.5675599,107.9804,71.42,97,100,2.98
976,Tukrah,Libya,32.5326308,20.5870955,81.05,53,0,14.12
977,Silvino Lobos,Philippines,12.2865134,124.8844867,74.82,97,95,2.17
978,Maneadero,Mexico,31.7154809,-116.570038,53.55,86,0,5.99
979,Yanam,India,16.7271912,82.21757749999999,85.21,73,100,8.99
980,Tual,Indonesia,-5.626563,132.7520867,80.47,81,94,16.04
981,Ocampo,Mexico,27.3156234,-102.3965211,69.39,80,37,5.03
982,Twentynine Palms,United States,34.1355582,-116.0541689,59.77,28,0,5.32
983,Uttiramerur,India,12.6148734,79.7593693,88.45,62,99,13.13
984,Ust-Maya,Russia,60.38333299999999,134.45,59.63,73,98,3.4
985,Vaitape,French Polynesia,-16.5066392,-151.751464,78.78,78,7,22.64
986,Ashland,United States,42.1945758,-122.7094767,40.3,92,8,0.45
987,Bukachacha,Russia,52.9814526,116.9023537,59.27,99,100,2.46
988,Ossora,Russia,59.23308199999999,163.067535,48.49,85,100,3.56
989,Brahmapuri,India,20.6098549,79.85768279999999,90.72,52,83,5.57
990,Wahiawa,United States,21.4959617,-158.0297748,72.19,76,48,8.7
991,Itamaraju,Brazil,-17.0346471,-39.532573,77.45,63,31,4.79
992,Virklund,Denmark,56.13079699999999,9.559089,62.64,61,100,9.62
993,Guatire,Venezuela,10.4578313,-66.5381024,80.24,64,38,4.59
994,Gazanjyk,Turkmenistan,39.2470722,55.51918569999999,95.97,21,0,11.83
995,Labuhan,Indonesia,-6.878575,112.2234989,79.99,82,96,6.17
996,Adamas,Greece,36.7252955,24.4447587,72.28,72,0,20.54
997,Wanaka,New Zealand,-44.6942992,169.1417356,33.93,91,40,3.89
998,Ndele,Central African Republic,8.4101505,20.6481794,85.71,53,88,3.6
